[
    {
        "type": "square",
        "names": [
            {
                "name": "میدان تیر",
                "slug": "Shooting range"
            }
        ],
        "location": {
            "lat": 35.636086,
            "lon": 51.406107
        },
        "search": "میدان تیر,Shooting range",
        "preview": "میدان تیر",
        "id": 1
    },
    {
        "type": "square",
        "names": [
            {
                "name": "میدان فردوسی",
                "slug": "Ferdowsi Square"
            }
        ],
        "location": {
            "lat": 35.701556,
            "lon": 51.41903
        },
        "search": "میدان فردوسی,Ferdowsi Square",
        "preview": "میدان فردوسی",
        "id": 2
    },
    {
        "type": "square",
        "names": [
            {
                "name": "میدان انقلاب",
                "slug": "Enghelab Square"
            }
        ],
        "location": {
            "lat": 35.700935,
            "lon": 51.391038
        },
        "search": "میدان انقلاب,Enghelab Square",
        "preview": "میدان انقلاب",
        "id": 3
    },
    {
        "type": "square",
        "names": [
            {
                "name": "میدان فلکه دوم صادقیه",
                "slug": "Second Square Square Square"
            }
        ],
        "location": {
            "lat": 35.722077,
            "lon": 51.335301
        },
        "search": "میدان فلکه دوم صادقیه,Second Square Square Square",
        "preview": "میدان فلکه دوم صادقیه",
        "id": 4
    },
    {
        "type": "square",
        "names": [
            {
                "name": "میدان پرستار",
                "slug": "The nurse"
            }
        ],
        "location": {
            "lat": 35.689882,
            "lon": 51.48395
        },
        "search": "میدان پرستار,The nurse",
        "preview": "میدان پرستار",
        "id": 5
    },
    {
        "type": "square",
        "names": [
            {
                "name": "میدان هروی",
                "slug": "Heravi field"
            }
        ],
        "location": {
            "lat": 35.767272,
            "lon": 51.476494
        },
        "search": "میدان هروی,Heravi field",
        "preview": "میدان هروی",
        "id": 6
    },
    {
        "type": "square",
        "names": [
            {
                "name": "میدان ونک",
                "slug": "Vanak Square"
            }
        ],
        "location": {
            "lat": 35.757474,
            "lon": 51.409887
        },
        "search": "میدان ونک,Vanak Square",
        "preview": "میدان ونک",
        "id": 7
    },
    {
        "type": "square",
        "names": [
            {
                "name": "میدان قزوین",
                "slug": "Qazvin Square"
            }
        ],
        "location": {
            "lat": 35.675201,
            "lon": 51.394688
        },
        "search": "میدان قزوین,Qazvin Square",
        "preview": "میدان قزوین",
        "id": 8
    },
    {
        "type": "square",
        "names": [
            {
                "name": "میدان فاطمی (جهاد)",
                "slug": "Fatemi Square (jihad)"
            }
        ],
        "location": {
            "lat": 35.719931,
            "lon": 51.405559
        },
        "search": "میدان فاطمی (جهاد),Fatemi Square (jihad)",
        "preview": "میدان فاطمی (جهاد)",
        "id": 9
    },
    {
        "type": "square",
        "names": [
            {
                "name": "میدان تجریش",
                "slug": "Tajrish Square"
            }
        ],
        "location": {
            "lat": 35.806944,
            "lon": 51.428916
        },
        "search": "میدان تجریش,Tajrish Square",
        "preview": "میدان تجریش",
        "id": 10
    },
    {
        "type": "square",
        "names": [
            {
                "name": "میدان چهارم تهرانپارس",
                "slug": "The fourth field Tehranpars"
            }
        ],
        "location": {
            "lat": 35.751079,
            "lon": 51.537968
        },
        "search": "میدان چهارم تهرانپارس,The fourth field Tehranpars",
        "preview": "میدان چهارم تهرانپارس",
        "id": 11
    },
    {
        "type": "square",
        "names": [
            {
                "name": "میدان هفت تیر",
                "slug": "Hafte-Tir Square"
            }
        ],
        "location": {
            "lat": 35.717145,
            "lon": 51.426742
        },
        "search": "میدان هفت تیر,Hafte-Tir Square",
        "preview": "میدان هفت تیر",
        "id": 12
    },
    {
        "type": "square",
        "names": [
            {
                "name": "میدان اول شهران",
                "slug": "The first field Shahran"
            }
        ],
        "location": {
            "lat": 35.762923,
            "lon": 51.290062
        },
        "search": "میدان اول شهران,The first field Shahran",
        "preview": "میدان اول شهران",
        "id": 13
    },
    {
        "type": "square",
        "names": [
            {
                "name": "میدان شهدا",
                "slug": "Martyrs' Square"
            }
        ],
        "location": {
            "lat": 35.689578,
            "lon": 51.447472
        },
        "search": "میدان شهدا,Martyrs' Square",
        "preview": "میدان شهدا",
        "id": 14
    },
    {
        "type": "square",
        "names": [
            {
                "name": "میدان فلکه یکم صادقیه",
                "slug": "First Circle Square Square"
            }
        ],
        "location": {
            "lat": 35.721836,
            "lon": 51.340943
        },
        "search": "میدان فلکه یکم صادقیه,First Circle Square Square",
        "preview": "میدان فلکه یکم صادقیه",
        "id": 15
    },
    {
        "type": "square",
        "names": [
            {
                "name": "میدان جمهوری اسلامی",
                "slug": "Islamic Republic Square"
            }
        ],
        "location": {
            "lat": 35.696698,
            "lon": 51.37853
        },
        "search": "میدان جمهوری اسلامی,Islamic Republic Square",
        "preview": "میدان جمهوری اسلامی",
        "id": 16
    },
    {
        "type": "square",
        "names": [
            {
                "name": "میدان امام حسن مجتبی",
                "slug": "Imam Hassan"
            }
        ],
        "location": {
            "lat": 35.673686,
            "lon": 51.473256
        },
        "search": "میدان امام حسن مجتبی,Imam Hassan",
        "preview": "میدان امام حسن مجتبی",
        "id": 17
    },
    {
        "type": "square",
        "names": [
            {
                "name": "میدان شوش",
                "slug": "Susa field"
            }
        ],
        "location": {
            "lat": 35.659777,
            "lon": 51.430853
        },
        "search": "میدان شوش,Susa field",
        "preview": "میدان شوش",
        "id": 18
    },
    {
        "type": "square",
        "names": [
            {
                "name": "میدان قدس",
                "slug": "Quds Square"
            }
        ],
        "location": {
            "lat": 35.804787,
            "lon": 51.434122
        },
        "search": "میدان قدس,Quds Square",
        "preview": "میدان قدس",
        "id": 19
    },
    {
        "type": "square",
        "names": [
            {
                "name": "میدان مادر",
                "slug": "The mother"
            }
        ],
        "location": {
            "lat": 35.758478,
            "lon": 51.442685
        },
        "search": "میدان مادر,The mother",
        "preview": "میدان مادر",
        "id": 20
    },
    {
        "type": "square",
        "names": [
            {
                "name": "میدان سرو",
                "slug": "Cedar Square"
            }
        ],
        "location": {
            "lat": 35.778722,
            "lon": 51.362424
        },
        "search": "میدان سرو,Cedar Square",
        "preview": "میدان سرو",
        "id": 21
    },
    {
        "type": "square",
        "names": [
            {
                "name": "میدان دربند",
                "slug": "Darband Square"
            }
        ],
        "location": {
            "lat": 35.820337,
            "lon": 51.425901
        },
        "search": "میدان دربند,Darband Square",
        "preview": "میدان دربند",
        "id": 22
    },
    {
        "type": "square",
        "names": [
            {
                "name": "میدان عدل",
                "slug": "Square bales"
            }
        ],
        "location": {
            "lat": 35.75534,
            "lon": 51.328751
        },
        "search": "میدان عدل,Square bales",
        "preview": "میدان عدل",
        "id": 23
    },
    {
        "type": "square",
        "names": [
            {
                "name": "میدان گلها",
                "slug": "Field of Flowers"
            }
        ],
        "location": {
            "lat": 35.721771,
            "lon": 51.399937
        },
        "search": "میدان گلها,Field of Flowers",
        "preview": "میدان گلها",
        "id": 24
    },
    {
        "type": "square",
        "names": [
            {
                "name": "میدان خراسان",
                "slug": "Khorasan Square"
            }
        ],
        "location": {
            "lat": 35.665341,
            "lon": 51.445503
        },
        "search": "میدان خراسان,Khorasan Square",
        "preview": "میدان خراسان",
        "id": 25
    },
    {
        "type": "square",
        "names": [
            {
                "name": "میدان باغ فیض",
                "slug": "Garden of Grace"
            }
        ],
        "location": {
            "lat": 35.744211,
            "lon": 51.327141
        },
        "search": "میدان باغ فیض,Garden of Grace",
        "preview": "میدان باغ فیض",
        "id": 26
    },
    {
        "type": "square",
        "names": [
            {
                "name": "میدان کتابی",
                "slug": "The book"
            }
        ],
        "location": {
            "lat": 35.751564,
            "lon": 51.444202
        },
        "search": "میدان کتابی,The book",
        "preview": "میدان کتابی",
        "id": 27
    },
    {
        "type": "square",
        "names": [
            {
                "name": "میدان یاسر",
                "slug": "Yasser field"
            }
        ],
        "location": {
            "lat": 35.812838,
            "lon": 51.45121
        },
        "search": "میدان یاسر,Yasser field",
        "preview": "میدان یاسر",
        "id": 28
    },
    {
        "type": "square",
        "names": [
            {
                "name": "میدان امام حسین",
                "slug": "Imam Hossein Square"
            }
        ],
        "location": {
            "lat": 35.701865,
            "lon": 51.448261
        },
        "search": "میدان امام حسین,Imam Hossein Square",
        "preview": "میدان امام حسین",
        "id": 29
    },
    {
        "type": "square",
        "names": [
            {
                "name": "میدان اقدسیه",
                "slug": "Aghdasieh field"
            }
        ],
        "location": {
            "lat": 35.801658,
            "lon": 51.486766
        },
        "search": "میدان اقدسیه,Aghdasieh field",
        "preview": "میدان اقدسیه",
        "id": 30
    },
    {
        "type": "square",
        "names": [
            {
                "name": "میدان الف",
                "slug": "A field"
            }
        ],
        "location": {
            "lat": 35.797574,
            "lon": 51.412028
        },
        "search": "میدان الف,A field",
        "preview": "میدان الف",
        "id": 31
    },
    {
        "type": "square",
        "names": [
            {
                "name": "میدان باهنر",
                "slug": "Bahonar Square"
            }
        ],
        "location": {
            "lat": 35.810927,
            "lon": 51.469977
        },
        "search": "میدان باهنر,Bahonar Square",
        "preview": "میدان باهنر",
        "id": 32
    },
    {
        "type": "square",
        "names": [
            {
                "name": "میدان شهرری",
                "slug": "Rey Square"
            }
        ],
        "location": {
            "lat": 35.590779,
            "lon": 51.437504
        },
        "search": "میدان شهرری,Rey Square",
        "preview": "میدان شهرری",
        "id": 33
    },
    {
        "type": "square",
        "names": [
            {
                "name": "میدان شاهد (پروین)",
                "slug": "Control field (Parvin)"
            }
        ],
        "location": {
            "lat": 35.74191,
            "lon": 51.542332
        },
        "search": "میدان شاهد (پروین),Control field (Parvin)",
        "preview": "میدان شاهد (پروین)",
        "id": 34
    },
    {
        "type": "square",
        "names": [
            {
                "name": "میدان رازی (گمرک)",
                "slug": "Razi field (customs)"
            }
        ],
        "location": {
            "lat": 35.666983,
            "lon": 51.396033
        },
        "search": "میدان رازی (گمرک),Razi field (customs)",
        "preview": "میدان رازی (گمرک)",
        "id": 35
    },
    {
        "type": "square",
        "names": [
            {
                "name": "میدان فلکه یکم تهرانپارس",
                "slug": "The first gate Tehranpars"
            }
        ],
        "location": {
            "lat": 35.72678,
            "lon": 51.525296
        },
        "search": "میدان فلکه یکم تهرانپارس,The first gate Tehranpars",
        "preview": "میدان فلکه یکم تهرانپارس",
        "id": 36
    },
    {
        "type": "square",
        "names": [
            {
                "name": "میدان بهار شیراز",
                "slug": "Spring field Shiraz"
            }
        ],
        "location": {
            "lat": 35.718002,
            "lon": 51.431767
        },
        "search": "میدان بهار شیراز,Spring field Shiraz",
        "preview": "میدان بهار شیراز",
        "id": 37
    },
    {
        "type": "square",
        "names": [
            {
                "name": "میدان توحید",
                "slug": "Tohid square"
            }
        ],
        "location": {
            "lat": 35.705675,
            "lon": 51.377632
        },
        "search": "میدان توحید,Tohid square",
        "preview": "میدان توحید",
        "id": 38
    },
    {
        "type": "square",
        "names": [
            {
                "name": "میدان منیریه",
                "slug": "Monirieh Square"
            }
        ],
        "location": {
            "lat": 35.681012,
            "lon": 51.401623
        },
        "search": "میدان منیریه,Monirieh Square",
        "preview": "میدان منیریه",
        "id": 39
    },
    {
        "type": "square",
        "names": [
            {
                "name": "میدان سیزده آبان",
                "slug": "Thirteen of November"
            }
        ],
        "location": {
            "lat": 35.68415,
            "lon": 51.483183
        },
        "search": "میدان سیزده آبان,Thirteen of November",
        "preview": "میدان سیزده آبان",
        "id": 40
    },
    {
        "type": "square",
        "names": [
            {
                "name": "میدان استاد معین",
                "slug": "Moeen's Square"
            }
        ],
        "location": {
            "lat": 35.698805,
            "lon": 51.347424
        },
        "search": "میدان استاد معین,Moeen's Square",
        "preview": "میدان استاد معین",
        "id": 41
    },
    {
        "type": "square",
        "names": [
            {
                "name": "میدان احتشامیه",
                "slug": "Ahtshamyh field"
            }
        ],
        "location": {
            "lat": 35.772276,
            "lon": 51.45669
        },
        "search": "میدان احتشامیه,Ahtshamyh field",
        "preview": "میدان احتشامیه",
        "id": 42
    },
    {
        "type": "square",
        "names": [
            {
                "name": "میدان اعدام",
                "slug": "Of execution."
            }
        ],
        "location": {
            "lat": 35.667673,
            "lon": 51.415845
        },
        "search": "میدان اعدام,Of execution.",
        "preview": "میدان اعدام",
        "id": 43
    },
    {
        "type": "square",
        "names": [
            {
                "name": "میدان اختیاریه",
                "slug": "Field is optional"
            }
        ],
        "location": {
            "lat": 35.786861,
            "lon": 51.466545
        },
        "search": "میدان اختیاریه,Field is optional",
        "preview": "میدان اختیاریه",
        "id": 44
    },
    {
        "type": "square",
        "names": [
            {
                "name": "میدان ونک",
                "slug": "Vanak Square"
            }
        ],
        "location": {
            "lat": 35.757465,
            "lon": 51.410003
        },
        "search": "میدان ونک,Vanak Square",
        "preview": "میدان ونک",
        "id": 45
    },
    {
        "type": "square",
        "names": [
            {
                "name": "میدان تسلیحات",
                "slug": "Arms Square"
            }
        ],
        "location": {
            "lat": 35.718777,
            "lon": 51.474318
        },
        "search": "میدان تسلیحات,Arms Square",
        "preview": "میدان تسلیحات",
        "id": 46
    },
    {
        "type": "square",
        "names": [
            {
                "name": "میدان فلسطین",
                "slug": "Palestine Square"
            }
        ],
        "location": {
            "lat": 35.706413,
            "lon": 51.403604
        },
        "search": "میدان فلسطین,Palestine Square",
        "preview": "میدان فلسطین",
        "id": 47
    },
    {
        "type": "square",
        "names": [
            {
                "name": "میدان ولیعصر",
                "slug": "Vali Asr Square"
            }
        ],
        "location": {
            "lat": 35.711586,
            "lon": 51.407094
        },
        "search": "میدان ولیعصر,Vali Asr Square",
        "preview": "میدان ولیعصر",
        "id": 48
    },
    {
        "type": "square",
        "names": [
            {
                "name": "میدان امامت",
                "slug": "Imam Square"
            }
        ],
        "location": {
            "lat": 35.71327,
            "lon": 51.489827
        },
        "search": "میدان امامت,Imam Square",
        "preview": "میدان امامت",
        "id": 49
    },
    {
        "type": "square",
        "names": [
            {
                "name": "میدان سپاه",
                "slug": "Army field"
            }
        ],
        "location": {
            "lat": 35.70676,
            "lon": 51.440496
        },
        "search": "میدان سپاه,Army field",
        "preview": "میدان سپاه",
        "id": 50
    },
    {
        "type": "square",
        "names": [
            {
                "name": "میدان بهارستان",
                "slug": "Parliament Square"
            }
        ],
        "location": {
            "lat": 35.690596,
            "lon": 51.431487
        },
        "search": "میدان بهارستان,Parliament Square",
        "preview": "میدان بهارستان",
        "id": 51
    },
    {
        "type": "square",
        "names": [
            {
                "name": "میدان آرژانتین",
                "slug": "Argentina Square"
            }
        ],
        "location": {
            "lat": 35.737049,
            "lon": 51.415396
        },
        "search": "میدان آرژانتین,Argentina Square",
        "preview": "میدان آرژانتین",
        "id": 52
    },
    {
        "type": "square",
        "names": [
            {
                "name": "میدان راه آهن",
                "slug": "Railway Square"
            }
        ],
        "location": {
            "lat": 35.659248,
            "lon": 51.397957
        },
        "search": "میدان راه آهن,Railway Square",
        "preview": "میدان راه آهن",
        "id": 53
    },
    {
        "type": "square",
        "names": [
            {
                "name": "میدان پاستور",
                "slug": "Pasteur"
            }
        ],
        "location": {
            "lat": 35.690786,
            "lon": 51.392531
        },
        "search": "میدان پاستور,Pasteur",
        "preview": "میدان پاستور",
        "id": 54
    },
    {
        "type": "square",
        "names": [
            {
                "name": "میدان استقلال",
                "slug": "Independence Square"
            }
        ],
        "location": {
            "lat": 35.758306,
            "lon": 51.513609
        },
        "search": "میدان استقلال,Independence Square",
        "preview": "میدان استقلال",
        "id": 55
    },
    {
        "type": "square",
        "names": [
            {
                "name": "میدان رسالت",
                "slug": "Resalat Square"
            }
        ],
        "location": {
            "lat": 35.736757,
            "lon": 51.487873
        },
        "search": "میدان رسالت,Resalat Square",
        "preview": "میدان رسالت",
        "id": 56
    },
    {
        "type": "square",
        "names": [
            {
                "name": "میدان شعاع",
                "slug": "The radius"
            }
        ],
        "location": {
            "lat": 35.720381,
            "lon": 51.420867
        },
        "search": "میدان شعاع,The radius",
        "preview": "میدان شعاع",
        "id": 57
    },
    {
        "type": "square",
        "names": [
            {
                "name": "میدان صنعت",
                "slug": "Industry Square"
            }
        ],
        "location": {
            "lat": 35.754131,
            "lon": 51.368253
        },
        "search": "میدان صنعت,Industry Square",
        "preview": "میدان صنعت",
        "id": 58
    },
    {
        "type": "square",
        "names": [
            {
                "name": "میدان پانزده خرداد",
                "slug": "Fifteen Square June"
            }
        ],
        "location": {
            "lat": 35.678436,
            "lon": 51.418832
        },
        "search": "میدان پانزده خرداد,Fifteen Square June",
        "preview": "میدان پانزده خرداد",
        "id": 59
    },
    {
        "type": "square",
        "names": [
            {
                "name": "میدان پونک",
                "slug": "Poonak Square"
            }
        ],
        "location": {
            "lat": 35.759854,
            "lon": 51.335142
        },
        "search": "میدان پونک,Poonak Square",
        "preview": "میدان پونک",
        "id": 60
    },
    {
        "type": "square",
        "names": [
            {
                "name": "میدان حر",
                "slug": "Hor"
            }
        ],
        "location": {
            "lat": 35.688145,
            "lon": 51.392863
        },
        "search": "میدان حر,Hor",
        "preview": "میدان حر",
        "id": 61
    },
    {
        "type": "square",
        "names": [
            {
                "name": "میدان نبوت",
                "slug": "The prophecy"
            }
        ],
        "location": {
            "lat": 35.729827,
            "lon": 51.493668
        },
        "search": "میدان نبوت,The prophecy",
        "preview": "میدان نبوت",
        "id": 62
    },
    {
        "type": "square",
        "names": [
            {
                "name": "میدان مفتح",
                "slug": "Mofateh field"
            }
        ],
        "location": {
            "lat": 35.699539,
            "lon": 51.337375
        },
        "search": "میدان مفتح,Mofateh field",
        "preview": "میدان مفتح",
        "id": 63
    },
    {
        "type": "square",
        "names": [
            {
                "name": "میدان بهمن",
                "slug": "Feb field"
            }
        ],
        "location": {
            "lat": 35.649369,
            "lon": 51.398102
        },
        "search": "میدان بهمن,Feb field",
        "preview": "میدان بهمن",
        "id": 64
    },
    {
        "type": "square",
        "names": [
            {
                "name": "میدان امام خمینی",
                "slug": "Imam Khomeini Square"
            }
        ],
        "location": {
            "lat": 35.685755,
            "lon": 51.421637
        },
        "search": "میدان امام خمینی,Imam Khomeini Square",
        "preview": "میدان امام خمینی",
        "id": 65
    },
    {
        "type": "square",
        "names": [
            {
                "name": "میدان فرهنگ",
                "slug": "Field of culture"
            }
        ],
        "location": {
            "lat": 35.733809,
            "lon": 51.405975
        },
        "search": "میدان فرهنگ,Field of culture",
        "preview": "میدان فرهنگ",
        "id": 66
    },
    {
        "type": "square",
        "names": [
            {
                "name": "میدان قیام",
                "slug": "Square uprising"
            }
        ],
        "location": {
            "lat": 35.669637,
            "lon": 51.436326
        },
        "search": "میدان قیام,Square uprising",
        "preview": "میدان قیام",
        "id": 67
    },
    {
        "type": "square",
        "names": [
            {
                "name": "میدان عطار نیشابوری",
                "slug": "Attar field"
            }
        ],
        "location": {
            "lat": 35.76409,
            "lon": 51.405153
        },
        "search": "میدان عطار نیشابوری,Attar field",
        "preview": "میدان عطار نیشابوری",
        "id": 68
    },
    {
        "type": "square",
        "names": [
            {
                "name": "میدان شیخ بهایی",
                "slug": "Sheikh Baha'i field"
            }
        ],
        "location": {
            "lat": 35.765713,
            "lon": 51.395294
        },
        "search": "میدان شیخ بهایی,Sheikh Baha'i field",
        "preview": "میدان شیخ بهایی",
        "id": 69
    },
    {
        "type": "square",
        "names": [
            {
                "name": "میدان پیروز",
                "slug": "Victory Square"
            }
        ],
        "location": {
            "lat": 35.791294,
            "lon": 51.456614
        },
        "search": "میدان پیروز,Victory Square",
        "preview": "میدان پیروز",
        "id": 70
    },
    {
        "type": "square",
        "names": [
            {
                "name": "میدان بهشت",
                "slug": "Paradise Square"
            }
        ],
        "location": {
            "lat": 35.632888,
            "lon": 51.410164
        },
        "search": "میدان بهشت,Paradise Square",
        "preview": "میدان بهشت",
        "id": 71
    },
    {
        "type": "square",
        "names": [
            {
                "name": "میدان آزادی",
                "slug": "Azadi Square"
            }
        ],
        "location": {
            "lat": 35.699597,
            "lon": 51.337553
        },
        "search": "میدان آزادی,Azadi Square",
        "preview": "میدان آزادی",
        "id": 72
    },
    {
        "type": "square",
        "names": [
            {
                "name": "میدان سلماس",
                "slug": "Salmas Sq"
            }
        ],
        "location": {
            "lat": 35.72349,
            "lon": 51.402309
        },
        "search": "میدان سلماس,Salmas Sq",
        "preview": "میدان سلماس",
        "id": 73
    },
    {
        "type": "square",
        "names": [
            {
                "name": "میدان دانشجو",
                "slug": "Student field"
            }
        ],
        "location": {
            "lat": 35.795364,
            "lon": 51.398068
        },
        "search": "میدان دانشجو,Student field",
        "preview": "میدان دانشجو",
        "id": 74
    },
    {
        "type": "square",
        "names": [
            {
                "name": "میدان بروجردی",
                "slug": "Boroujerdi field"
            }
        ],
        "location": {
            "lat": 35.685605,
            "lon": 51.467022
        },
        "search": "میدان بروجردی,Boroujerdi field",
        "preview": "میدان بروجردی",
        "id": 75
    },
    {
        "type": "square",
        "names": [
            {
                "name": "میدان اطلاعات",
                "slug": "Square Information"
            }
        ],
        "location": {
            "lat": 35.71369,
            "lon": 51.499105
        },
        "search": "میدان اطلاعات,Square Information",
        "preview": "میدان اطلاعات",
        "id": 76
    },
    {
        "type": "square",
        "names": [
            {
                "name": "میدان باغچه بیدی",
                "slug": "Garden Square Bidi"
            }
        ],
        "location": {
            "lat": 35.685721,
            "lon": 51.462496
        },
        "search": "میدان باغچه بیدی,Garden Square Bidi",
        "preview": "میدان باغچه بیدی",
        "id": 77
    },
    {
        "type": "square",
        "names": [
            {
                "name": "میدان حسن آباد",
                "slug": "Hasan Abad Square"
            }
        ],
        "location": {
            "lat": 35.686041,
            "lon": 51.410064
        },
        "search": "میدان حسن آباد,Hasan Abad Square",
        "preview": "میدان حسن آباد",
        "id": 78
    },
    {
        "type": "square",
        "names": [
            {
                "name": "میدان وحدت",
                "slug": "Unity Square"
            }
        ],
        "location": {
            "lat": 35.672836,
            "lon": 51.407496
        },
        "search": "میدان وحدت,Unity Square",
        "preview": "میدان وحدت",
        "id": 79
    },
    {
        "type": "square",
        "names": [
            {
                "name": "میدان هلال احمر",
                "slug": "The Red Crescent"
            }
        ],
        "location": {
            "lat": 35.731351,
            "lon": 51.48566
        },
        "search": "میدان هلال احمر,The Red Crescent",
        "preview": "میدان هلال احمر",
        "id": 80
    },
    {
        "type": "square",
        "names": [
            {
                "name": "میدان نوبنیاد",
                "slug": "The new field"
            }
        ],
        "location": {
            "lat": 35.791497,
            "lon": 51.477655
        },
        "search": "میدان نوبنیاد,The new field",
        "preview": "میدان نوبنیاد",
        "id": 81
    },
    {
        "type": "square",
        "names": [
            {
                "name": "میدان شهید محلاتی",
                "slug": "The martyr neighborhoods"
            }
        ],
        "location": {
            "lat": 35.670782,
            "lon": 51.464581
        },
        "search": "میدان شهید محلاتی,The martyr neighborhoods",
        "preview": "میدان شهید محلاتی",
        "id": 82
    },
    {
        "type": "square",
        "names": [
            {
                "name": "میدان نیاوران",
                "slug": "Niyavaran field"
            }
        ],
        "location": {
            "lat": 35.810826,
            "lon": 51.470319
        },
        "search": "میدان نیاوران,Niyavaran field",
        "preview": "میدان نیاوران",
        "id": 83
    },
    {
        "type": "square",
        "names": [
            {
                "name": "میدان کلانتری (اسد ابادی)",
                "slug": "Station Square (Asadabad)"
            }
        ],
        "location": {
            "lat": 35.639554,
            "lon": 51.412161
        },
        "search": "میدان کلانتری (اسد ابادی),Station Square (Asadabad)",
        "preview": "میدان کلانتری (اسد ابادی)",
        "id": 84
    },
    {
        "type": "square",
        "names": [
            {
                "name": "میدان حسن تهرانی (کاج)",
                "slug": "Square Hassan Tehrani (pine)"
            }
        ],
        "location": {
            "lat": 35.781863,
            "lon": 51.374814
        },
        "search": "میدان حسن تهرانی (کاج),Square Hassan Tehrani (pine)",
        "preview": "میدان حسن تهرانی (کاج)",
        "id": 85
    },
    {
        "type": "square",
        "names": [
            {
                "name": "میدان نیلوفر",
                "slug": "Niloufar"
            }
        ],
        "location": {
            "lat": 35.764578,
            "lon": 51.425854
        },
        "search": "میدان نیلوفر,Niloufar",
        "preview": "میدان نیلوفر",
        "id": 86
    },
    {
        "type": "square",
        "names": [
            {
                "name": "میدان هفت تیر",
                "slug": "Hafte-Tir Square"
            }
        ],
        "location": {
            "lat": 35.717127,
            "lon": 51.426758
        },
        "search": "میدان هفت تیر,Hafte-Tir Square",
        "preview": "میدان هفت تیر",
        "id": 87
    },
    {
        "type": "square",
        "names": [
            {
                "name": "میدان شعاع",
                "slug": "The radius"
            }
        ],
        "location": {
            "lat": 35.720363,
            "lon": 51.420873
        },
        "search": "میدان شعاع,The radius",
        "preview": "میدان شعاع",
        "id": 88
    }
]